{
	"items": [{
		"id":"1",
		"name": "Adidas",
		"description": "Test desc",
		"logo": "img/adidas.png",
		"productseries_set": [{
			"category": 1,
			"name": "Test product",
			"short_description": "12",
			"description": "12",
			"selling_cities": null,
			"expanding_cities": null,
			"photos": null,
			"material_types": null,
			"decoration_styles": null
		},{
			"category": 2,
			"name": "Test product 2",
			"short_description": "122",
			"description": "122",
			"selling_cities": null,
			"expanding_cities": null,
			"photos": null,
			"material_types": null,
			"decoration_styles": null
		}],
		"brand_agent": "",
		"web_site": "http://www.adidas.com",
		"phone": "110",
		"style": "Test",
		"material": [1, 2],
		"factory": "",
		"category": [1, 2],
		"selling_cities": [{
			"city": "上海市",
			"address": "上海市晨晖路1001号",
			"lon":121.608268202,
			"lat":31.20728737205,
			"name": "SAP Labs China"
		},{
			"city": "上海市",
			"address": "上海市金科路1500号",
			"lon":121.60551108472,
			"lat": 31.223698241608,
			"name": "上海金科路店"
		},{
			"city": "上海市",
			"address": "上海市虹桥路路1001号",
			"lon":121.42214064779,
			"lat":31.202830959528,
			"name": "上海虹桥店"
		}],
		"expanding_cities": ["上海市", "江苏省扬州市", "浙江省杭州市"],
		"created_by": "",
		"updated_by": ""
	}, {
		"id":"2",
		"name": "Nike",
		"description": "Test desc",
		"logo": "img/nike.png",
		"productseries_set": [],
		"brand_agent": "",
		"web_site": "http://www.nike.com",
		"phone": "110",
		"style": "Test",
		"material": [],
		"factory": "",
		"category": [1, 3],
		"selling_cities": [],
		"expanding_cities": ["北京市"],
		"created_by": "",
		"updated_by": ""
	}]
}